Time,Roll,RollRate,Pitch,PitchRate,Yaw,YawRate,Aileron,Elevator,Rudder
0.0,9.998511149008168,-0.05212630032102924,5.002356947561389,-0.03393519964317826,1.9974177062037661,-0.010576871524633462,-0.6,-0.6,-0.6
0.01,9.997089070623273,-0.10989736557733719,5.000453148374507,-0.07580663103441387,1.9979466665354764,-0.026069832530743506,-1.2,-1.2,-1.2
0.02,9.99750509237706,-0.17298638458195004,4.998116225957831,-0.1260219847638365,1.9969743271100855,-0.04636393893828279,-1.7999999999999998,-1.7999999999999998,-1.7999999999999998
0.03,9.99526952686224,-0.2393495516886967,4.996497570744001,-0.18377520004569528,1.9964492281909434,-0.07086107931699262,-2.4,-2.4,-2.4
0.04,9.991954043445734,-0.3098378995251527,4.995617061919482,-0.24700975698790253,1.9948577570283996,-0.10007882078256579,-3.0,-3.0,-3.0
0.05,9.987410469382237,-0.38647571626369864,4.993266288877577,-0.3173515847745283,1.9949757241441466,-0.13578454768048948,-3.5999999999999996,-3.5999999999999996,-3.5999999999999996
0.06,9.986401994267622,-0.46752655750213246,4.990764695419425,-0.3958882842346825,1.9929094977512591,-0.1785000161992808,-4.199999999999999,-4.199999999999999,-4.199999999999999
0.07,9.978967727396071,-0.5556752323427661,4.987616062523387,-0.48270900751715057,1.9898589780448335,-0.22700592783618068,-4.8,-4.8,-4.8
0.08,9.97304394691367,-0.6481496581820569,4.98234401433525,-0.5750323991660508,1.9879101642110895,-0.27910790332754604,-5.3999999999999995,-5.3999999999999995,-5.3999999999999995
0.09,9.965025013988488,-0.746242605979108,4.975751728280009,-0.6715724405040224,1.9842985985463595,-0.33801000158633643,-6.0,-6.0,-6.0
0.1,9.958324637324687,-0.8499429941452478,4.969685761901168,-0.7756062273617307,1.9809797721176279,-0.3990123063386283,-6.6,-6.6,-6.6
0.11,9.949431105715366,-0.9565792002726825,4.959565873660483,-0.8873952610672501,1.9777675924621003,-0.4652126761465989,-7.199999999999999,-7.199999999999999,-7.199999999999999
0.12,9.938280433822287,-1.0697999494177644,4.947829587207549,-1.0046224321374901,1.9741711409871923,-0.5362304083248748,-7.799999999999998,-7.799999999999998,-7.799999999999998
0.13,9.926494653640791,-1.1842561347731686,4.93841225085013,-1.1269389192098451,1.9685878994250607,-0.6144855916915813,-8.399999999999997,-8.399999999999997,-8.399999999999997
0.14,9.913162784231119,-1.3025885497099314,4.927251521535399,-1.2545209910234814,1.9618020049520568,-0.6978896640260097,-8.999999999999996,-8.999999999999996,-8.999999999999996
0.15,9.899832805752121,-1.4302108361160346,4.914393285755238,-1.3911351192125934,1.9550609933940883,-0.7858683924524624,-9.599999999999996,-9.599999999999996,-9.599999999999996
0.16,9.882308593153507,-1.5628345730104922,4.902279593210261,-1.5331037058167656,1.9446279684764232,-0.8796643661797661,-10.199999999999996,-10.199999999999996,-10.199999999999996
0.17,9.865660216672547,-1.699048668721512,4.88704839336472,-1.6800501944241955,1.9344779890522965,-0.975492052684177,-10.799999999999995,-10.799999999999995,-10.799999999999995
0.18,9.846610870842376,-1.839572589709272,4.869900261578766,-1.8335201321685428,1.9242147387451414,-1.0759662641183037,-11.399999999999993,-11.399999999999993,-11.399999999999993
0.19,9.827134002245186,-1.9831305997969402,4.849983771226826,-1.991158172824802,1.9126866128402265,-1.18259710110871,-11.999999999999993,-11.999999999999993,-11.999999999999993
0.2,9.807947757345504,-2.1300085302437095,4.83017319193763,-2.1540009024249547,1.8996603933965506,-1.2874994283101062,-12.599999999999993,-12.599999999999993,-11.99531136911011
0.21,9.785283102568947,-2.2825825015651713,4.808842822377999,-2.3229370845413326,1.8862297925078682,-1.3859625803560758,-13.199999999999992,-13.199999999999992,-11.395311369110111
0.22,9.760172208691792,-2.436252616449997,4.785084453412113,-2.4962249049252097,1.873050690139998,-1.4801961944859152,-13.79999999999999,-13.79999999999999,-10.795311369110111
0.23,9.73495890867962,-2.5948606186445007,4.75811276587502,-2.675315309323355,1.8569292003795455,-1.574262894300008,-14.399999999999991,-14.399999999999991,-10.657578598970744
0.24,9.709826902793338,-2.756162965744046,4.728620974131327,-2.8591169446865576,1.8395053450086523,-1.6621006213442577,-14.999999999999993,-14.999999999999993,-10.057578598970744
0.25,9.680953580471682,-2.921372160801953,4.699835455746413,-3.04818076267151,1.8223702944601599,-1.7447881314453633,-15.599999999999993,-15.599999999999993,-9.457578598970745
0.26,9.651552075699765,-3.089343548066709,4.668726199043034,-3.2415005342862564,1.8043080399853741,-1.8221063302613203,-16.199999999999996,-16.199999999999996,-8.857578598970747
0.27,9.620470455621913,-3.25729035373386,4.634988861879311,-3.4427246736017083,1.7869750450567692,-1.8941282764497962,-16.799999999999994,-16.799999999999994,-8.257578598970747
0.28,9.584477167691825,-3.4308080068055706,4.598796733691018,-3.646012856118768,1.768316006189399,-1.967522295639319,-17.399999999999995,-17.399999999999995,-8.271938596571104
0.29,9.549487254444964,-3.6089831624088773,4.561286810678667,-3.854395319743634,1.7490762493662673,-2.034561019636391,-17.999999999999996,-17.999999999999996,-7.671938596571105
0.3,9.511108473072904,-3.788893528578983,4.520713915937317,-4.069811983788086,1.7285531683102935,-2.094836453406985,-18.599999999999998,-18.599999999999998,-7.071938596571105
0.31,9.47435381714354,-3.970119616672643,4.478955276681815,-4.2879816507158965,1.7073370427155665,-2.1532858366562495,-19.2,-19.2,-6.471938596571105
0.32,9.432930655727342,-4.156442227553808,4.435084162328919,-4.510763186459632,1.6859303799215042,-2.208457256538457,-19.8,-19.8,-6.141390053053386
0.33,9.389793217240364,-4.346160986197625,4.386390351251111,-4.737901468519753,1.6628688321935996,-2.259312120707469,-20.4,-20.4,-5.722369273156687
0.34,9.344680308219681,-4.537348548741156,4.3347889686790575,-4.968808692153452,1.6409634361417575,-2.305293070263734,-21.0,-21.0,-5.1223692731566866
0.35000000000000003,9.298476112532096,-4.73216460673233,4.284522770874586,-5.205513168716598,1.6182638426471456,-2.3530504025057892,-21.6,-21.6,-5.229628338190461
0.36,9.249659283393978,-4.929375449442475,4.230244730955464,-5.4454137948497126,1.5957734613618302,-2.3973455474705916,-22.200000000000003,-22.200000000000003,-5.035332365010101
0.37,9.198217116885846,-5.128755281179212,4.173622309608486,-5.687933462086525,1.5728092345527667,-2.437062758747264,-22.800000000000004,-22.800000000000004,-4.4353323650101
0.38,9.146388984409887,-5.329045009043862,4.116962632019449,-5.935452343985066,1.5497329317880426,-2.470787870095277,-23.400000000000006,-23.400000000000006,-3.8353323650101
0.39,9.094364567034592,-5.5325678577702355,4.057496603841316,-6.186308291459129,1.5241769148346944,-2.5032149028619624,-24.000000000000004,-24.000000000000004,-3.2353323650101
0.4,9.038681292830104,-5.737110157699311,3.995272384140507,-6.442821107681769,1.4985901270144812,-2.530396717850294,-24.600000000000005,-24.600000000000005,-2.789161858599183
0.41000000000000003,8.97937715136091,-5.945439668892613,3.9295742958080107,-6.700306695040603,1.4721965061009175,-2.5635551029358177,-25.0,-25.0,-3.1638401764120205
0.42,8.917969175186295,-6.14954555900708,3.862355396797663,-6.943441654764906,1.4469376890232615,-2.587756111849933,-25.0,-24.4,-2.5638401764120204
0.43,8.854931120256754,-6.351284740370763,3.790687031877335,-7.176569122301046,1.4197274018987212,-2.6087681160102734,-25.0,-23.799999999999997,-1.9638401764120206
0.44,8.790214295720657,-6.550707373606158,3.71658582324897,-7.397053799793546,1.3927459979631238,-2.6263999693293374,-25.0,-23.2,-1.3638401764120205
0.45,8.722542588990244,-6.749077580263016,3.6395553079955363,-7.606309398596635,1.3645283395955292,-2.6378694616314644,-25.0,-22.599999999999998,-0.7638401764120205
0.46,8.652444877167174,-6.940475232718302,3.5630824156782586,-7.803747601600726,1.3382668524591523,-2.6471569512212203,-25.0,-21.999999999999996,-0.7544629181494067
0.47000000000000003,8.58158598288666,-7.128488074309598,3.4838050811221635,-7.989645434405284,1.3119878952996271,-2.654604287478104,-25.0,-21.399999999999995,-0.5432267656769527
0.48,8.51075793650022,-7.315911468050605,3.403563725196553,-8.162106961272208,1.283731675220506,-2.6624461195366718,-25.0,-20.799999999999994,-0.38878895326219765
0.49,8.437060534325463,-7.502429339968255,3.319229572550951,-8.325858203532057,1.2561257243523871,-2.6682997580005035,-25.0,-20.199999999999992,-0.19242245198914024
0.5,8.362569846613045,-7.684962016826107,3.2369894617720125,-8.481177684734305,1.2279100937221468,-2.6677166037284725,-25.0,-19.599999999999994,0.4075775480108597
0.51,8.285384911403636,-7.864158504086419,3.1498980186639027,-8.623286941788795,1.2005413865701888,-2.6658365968211015,-25.0,-18.999999999999993,0.5756406280849932
0.52,8.206878110187674,-8.040347213553412,3.0632763709334525,-8.755362541672003,1.1747261370995765,-2.6607828548757997,-25.0,-18.39999999999999,1.1756406280849931
0.53,8.126759006019645,-8.215254890490161,2.9768586970470383,-8.873505203928344,1.1484566846765725,-2.6560774569751637,-25.0,-17.79999999999999,0.958238398884945
0.54,8.04158756557451,-8.388188200393532,2.8881585830519603,-8.983127620859868,1.1228122807990486,-2.648895254578979,-25.0,-17.19999999999999,1.337750879435962
0.55,7.956711584110813,-8.556932120747097,2.798456181957442,-9.083402234618374,1.0960646008567925,-2.643502312118218,-25.0,-16.599999999999987,1.3680171817242386
0.56,7.868753796389283,-8.724079534419046,2.7062827764696213,-9.173423477457506,1.069549690510448,-2.6352064329682983,-25.0,-15.999999999999988,1.3438234423057607
0.5700000000000001,7.779732276665165,-8.886757700099059,2.61510560206932,-9.254235190418894,1.0429876518841579,-2.622896281149346,-25.0,-15.399999999999986,1.9438234423057605
0.58,7.6886211672290194,-9.049874837037514,2.5215441439554533,-9.324990657601338,1.0152714139936347,-2.611150911303504,-25.0,-14.799999999999986,1.856184747269727
0.59,7.598436737122732,-9.209097490522929,2.429749634680076,-9.385714694342727,0.990140008850043,-2.5945293844190322,-25.0,-14.199999999999987,2.456184747269727
0.6,7.506268681495528,-9.369498600873444,2.33578846433416,-9.43463722072381,0.9650642608579165,-2.5810935496587013,-25.0,-13.599999999999987,2.0430904522255657
0.61,7.412474032562767,-9.524853389987744,2.240888467977201,-9.47814509438783,0.9386592598084301,-2.5639864073352046,-25.0,-12.999999999999988,2.643090452225566
0.62,7.3168323589422695,-9.675608644937236,2.1460224606186027,-9.511908980422065,0.9122877436706855,-2.5436095730810004,-25.0,-12.39999999999999,2.941987978716268
0.63,7.21983840343073,-9.826375520535212,2.0514237583454946,-9.534969313031288,0.8861861732596328,-2.5236253949640433,-25.0,-11.79999999999999,2.6405097634176546
0.64,7.121374970400482,-9.975148180396737,1.9572040013323748,-9.54979776022437,0.8614958976333795,-2.5087616904915397,-25.0,-11.19999999999999,2.667680511392217
0.65,7.021082863846496,-10.121551160364662,1.8603957485494425,-9.556565311523602,0.8364308252435897,-2.4875294126662038,-25.0,-10.59999999999999,3.267680511392217
0.66,6.921145367464229,-10.264840241901952,1.7643489043201908,-9.553249221279966,0.8124706990706654,-2.466645524823599,-25.0,-9.999999999999991,3.074473937709274
0.67,6.817847133905041,-10.400338303855575,1.6679342872196883,-9.542683027643289,0.7865015181527609,-2.4461683009205646,-24.4,-9.399999999999993,3.077281881555993
0.68,6.713508275386484,-10.528490023967427,1.5720006637819128,-9.52277747914608,0.7622738827239052,-2.4194348860594617,-23.799999999999997,-8.799999999999994,3.6330807752140712
0.6900000000000001,6.607307044732874,-10.651870511175641,1.4763999222656337,-9.494723225972164,0.7380584142042895,-2.398568497007811,-23.2,-8.199999999999994,3.132195128287483
0.7000000000000001,6.5012769801363355,-10.764005662956563,1.383362564853777,-9.459552554562869,0.7154883421213054,-2.3719355001408617,-22.599999999999998,-7.599999999999995,3.7288945442241244
0.71,6.394307463523826,-10.869482403305595,1.2890408107855087,-9.416450264938046,0.6932539139227747,-2.3416643311927268,-21.999999999999996,-6.999999999999995,4.2847981862873254
0.72,6.286116367140863,-10.968666294975828,1.1956313159394096,-9.364644126645484,0.6697240744310917,-2.314647050138805,-21.399999999999995,-6.399999999999995,3.6847981862873254
0.73,6.176154316010309,-11.060690703693773,1.1004614638686028,-9.306793928251238,0.6460340986983616,-2.284642397441421,-20.799999999999994,-5.7999999999999945,4.1716819633287985
0.74,6.067250301810409,-11.144207858387894,1.0066050437602785,-9.240429467240762,0.621160392415283,-2.2535374788606055,-20.199999999999992,-5.199999999999995,4.316259705925669
0.75,5.954463241884785,-11.221992297986358,0.913827730794814,-9.165927749245071,0.5999602820151755,-2.227006622995478,-19.599999999999994,-4.599999999999994,3.7162597059256686
0.76,5.843106115449196,-11.29171615629393,0.8216309505010589,-9.084370715245445,0.577604599290971,-2.1950915995492006,-18.999999999999993,-3.9999999999999947,4.316259705925669
0.77,5.72994501469059,-11.357397628691851,0.7296499236172892,-8.995849114627482,0.5561040617897802,-2.1611012189456167,-18.39999999999999,-3.3999999999999946,4.535892124724497
0.78,5.616333571646916,-11.412851477784324,0.6404000072158529,-8.899166446779791,0.5349427104781903,-2.1277251485920456,-17.79999999999999,-2.7999999999999945,4.262482091146313
0.79,5.502405798675771,-11.462989547395301,0.5518434076631652,-8.795762897140804,0.5121023074949187,-2.101519697531955,-17.19999999999999,-2.1999999999999944,3.6624820911463134
0.8,5.388590222332454,-11.508231886250293,0.4634463033109716,-8.68419554937439,0.490305545701558,-2.069502083047533,-16.599999999999987,-1.5999999999999943,4.027213541605772
0.81,5.273791073191844,-11.545554280044806,0.3781405822464255,-8.567370130727154,0.4690952095143582,-2.0393154744393907,-15.999999999999988,-0.9999999999999942,3.9334678941186008
0.8200000000000001,5.15697902724329,-11.575237937633313,0.2934560343876771,-8.444136081331004,0.44875287978102374,-2.005710700879305,-15.399999999999986,-0.3999999999999943,4.389684273511056
0.8300000000000001,5.041793384897291,-11.598377284959753,0.21007538699384382,-8.31264097610273,0.42790453876433204,-1.9682744965557057,-14.799999999999986,0.20000000000000565,4.809430876819898
0.84,4.926585972043643,-11.618243556019161,0.12718886964346754,-8.178294204798377,0.4082995015479087,-1.9336932392303265,-14.199999999999987,0.8000000000000056,4.394053961253093
0.85,4.809464386553997,-11.63068040885156,0.045667625610234054,-8.037029365079771,0.3873516702767686,-1.8982157779205826,-13.599999999999987,1.4000000000000055,4.321646452056857
0.86,4.69220374095151,-11.635626365800093,-0.033915242752223004,-7.888319012817291,0.36891697932045997,-1.8634990495650494,-12.999999999999988,2.0000000000000058,4.489062247975162
0.87,4.575280342274011,-11.633529683217487,-0.11165490710111331,-7.731418653824804,0.350931296044493,-1.829062539997457,-12.39999999999999,2.600000000000006,4.417421807824628
0.88,4.461551233216585,-11.627057350315031,-0.1856237480864596,-7.569900518717495,0.3351377021242469,-1.7933244019877541,-11.79999999999999,3.2000000000000055,4.290673453765859
0.89,4.346180179982196,-11.61319193434886,-0.25996314772818196,-7.40079405975787,0.31882105341733485,-1.7577507980572158,-11.19999999999999,3.800000000000005,4.430301634654378
0.9,4.230523301150021,-11.594454305981547,-0.3336531677424833,-7.227685098447651,0.3016675803927202,-1.7169553961341975,-10.59999999999999,4.400000000000006,4.87719878892198
0.91,4.114742444822114,-11.568121857057468,-0.4051122337331035,-7.05016863911077,0.2842135339732987,-1.6806158947595446,-9.999999999999991,5.000000000000005,4.622505179679158
0.92,3.998943270858885,-11.537769720817346,-0.4739874717531216,-6.865086935503904,0.26727135767688875,-1.6421518584411012,-9.399999999999993,5.600000000000006,4.589339398779273
0.93,3.8860602893629705,-11.500236065824433,-0.5401795465426243,-6.6763432321341485,0.2512636802016043,-1.6090229731936145,-8.799999999999994,6.2000000000000055,4.163068914340866
0.9400000000000001,3.7715542568109215,-11.456667849129989,-0.6043463319388674,-6.481461232580676,0.23594906083664566,-1.5695586261314842,-8.199999999999994,6.800000000000006,4.539393932789396
0.9500000000000001,3.656064835187288,-11.409030423072073,-0.6675833618137645,-6.27972104091552,0.22211967219581527,-1.5342200043172798,-7.599999999999995,7.400000000000006,4.542735179381781
0.96,3.5425200031054556,-11.358478190049091,-0.7292237870226561,-6.074512865193063,0.20711480714434613,-1.492619210459505,-6.999999999999995,8.000000000000005,4.821844757956671
0.97,3.4308129626959545,-11.300140136015177,-0.789197107249349,-5.862477936801272,0.1917453889538724,-1.4528442697026804,-6.399999999999995,8.600000000000005,4.834156704226479
0.98,3.318543828462888,-11.236403538274542,-0.8490311398168581,-5.645962647959457,0.17882069253851457,-1.4167690689162828,-5.7999999999999945,9.200000000000003,4.234156704226479
0.99,3.208506217789219,-11.16718351247404,-0.9027936092990261,-5.42627548208485,0.16714712933539022,-1.3825391802551623,-5.199999999999995,9.800000000000002,3.978889452144598
1.0,3.09753314692198,-11.093075545519444,-0.9565286549562882,-5.199218820139102,0.1536230760071701,-1.344882666442218,-4.599999999999994,10.400000000000002,4.340111753803687
1.01,2.989079825788063,-11.01510298571131,-1.0063546776097898,-4.968082973329322,0.1413711354344596,-1.308298633671376,-3.9999999999999947,11.000000000000002,3.9972849956380516
1.02,2.879397809807121,-10.93301497237576,-1.052707021962165,-4.7311443773090325,0.1272473770768174,-1.2676531981701564,-3.3999999999999946,11.6,4.597284995638051
1.03,2.769999846085463,-10.844179319244034,-1.0978355916822953,-4.488432933594319,0.11371417160573986,-1.2315655192321278,-2.7999999999999945,12.2,3.9972849956380516
1.04,2.6624344569067206,-10.750888363294612,-1.140697874539762,-4.243833380154216,0.10037388563907008,-1.2014781656885367,-2.1999999999999944,12.799999999999999,3.58322770261511
1.05,2.5574578565031043,-10.650629030498424,-1.18151903585591,-3.993701045796293,0.0919820518765051,-1.1642111576340906,-1.5999999999999943,13.399999999999999,4.183227702615111
1.06,2.4525583388499856,-10.547037664000927,-1.2205488427293592,-3.739628947074711,0.08093621258422067,-1.1280748884115273,-0.9999999999999942,13.999999999999998,3.8847408581829623
1.07,2.347302057354621,-10.439138437958675,-1.257729847293971,-3.4821559652382343,0.07004719907480102,-1.0929924931974742,-0.3999999999999943,14.599999999999998,3.847432997462007
1.08,2.2448292124712563,-10.32730678851845,-1.2914884588425153,-3.219948374996262,0.05969817546163244,-1.0571008361713785,0.20000000000000565,15.2,3.923395196409669
1.09,2.1410166809914655,-10.208353965807916,-1.3208708017747268,-2.9521573544046307,0.04927840376432586,-1.021166500251657,0.8000000000000056,15.8,4.043904605807332
1.1,2.0400226244240525,-10.08685617143502,-1.348516480968176,-2.6817448767934686,0.038401855788688044,-0.9878372949629106,1.4000000000000055,16.400000000000002,3.716987280446097
1.11,1.9396073155694833,-9.961561025236236,-1.3745164284711682,-2.4062611873623454,0.02804868332830024,-0.9532534877883857,2.0000000000000058,17.0,3.621357278331055
1.12,1.8405245573774214,-9.8308755307282,-1.396110497240405,-2.1278949273339527,0.01899328687973816,-0.9204337373361271,2.600000000000006,17.6,3.43779470817724
1.1300000000000001,1.7426271116846943,-9.696567087601819,-1.4152314589973052,-1.8450255924285968,0.008883512595645349,-0.8878366222023062,3.2000000000000055,18.200000000000003,3.2388181473911564
1.1400000000000001,1.6481798069714537,-9.554475278797211,-1.4316413328251625,-1.5592328840971503,0.0018569194567016076,-0.8515175954360635,3.800000000000005,18.800000000000004,3.838818147391156
1.1500000000000001,1.5523298454220356,-9.410316467143522,-1.4466921852715071,-1.2681381662350852,-0.006607467833975607,-0.8190194001992598,4.400000000000006,19.400000000000006,3.6252541596104186
1.16,1.4606850983631987,-9.261603411030089,-1.457245797490119,-0.9743946008442163,-0.014258789008743134,-0.7806738230572625,5.000000000000005,20.000000000000007,3.995940045235427
1.17,1.3688360242728101,-9.10841005042128,-1.4667278657392822,-0.678100302135287,-0.0206385276139517,-0.7466851778461805,5.600000000000006,20.60000000000001,3.395940045235427
1.18,1.2768154171547315,-8.95180248461683,-1.47343134838393,-0.3740185781401466,-0.028420062520173428,-0.7134144091056676,6.2000000000000055,21.200000000000006,3.4015615460412856
1.19,1.1866377257051444,-8.791753342275673,-1.4752530210407353,-0.06991431251229879,-0.0375568832884469,-0.6762721235387272,6.800000000000006,21.800000000000008,3.663012242944647
1.2,1.1009900006435365,-8.62809513780262,-1.4714783312523232,0.2378768866472523,-0.043793894547775596,-0.6466717498882046,7.400000000000006,22.40000000000001,3.0630122429446467
1.21,1.017116412300328,-8.45839754020015,-1.4695411010588164,0.5508078454667513,-0.048604747856376196,-0.6170328440849691,8.000000000000005,23.00000000000001,2.7851128160928953
1.22,0.931964531798339,-8.28442302389468,-1.4628150508223068,0.8491330185997805,-0.054933721388557157,-0.5858051204530362,8.600000000000005,22.40000000000001,2.7263843529797334
1.23,0.849072262883321,-8.108054346317916,-1.4531070811261912,1.1353266491706433,-0.06268305137100094,-0.5554234067797855,9.200000000000003,21.800000000000008,3.042686383731237
1.24,0.7706733093136412,-7.9286829844023945,-1.4377534468540476,1.4095208833971742,-0.06900658153248504,-0.5257704796837119,9.800000000000002,21.200000000000006,2.854788551258744
1.25,0.6920098754063604,-7.744588417086376,-1.4224455304533405,1.6709616809035397,-0.07548829211781162,-0.49721538610668675,10.400000000000002,20.60000000000001,2.254788551258744
1.26,0.6150938833473094,-7.555890602585901,-1.4042043179999364,1.922156751589151,-0.08102137379688322,-0.4656834801615934,11.000000000000002,20.000000000000007,2.854788551258744
1.27,0.5400176750783288,-7.363851949730022,-1.3859093464493424,2.159409419130443,-0.08599753830351485,-0.4399199497417784,11.6,19.400000000000006,2.254788551258744
1.28,0.4689030832674426,-7.167996825624094,-1.3632646385822116,2.3864971172602107,-0.0907683755741184,-0.4137832073348891,12.2,18.800000000000004,2.220308095385083
1.29,0.39837064114931015,-6.9685321666199975,-1.3376375980331776,2.602658955926587,-0.0948230784479808,-0.37992528496671785,12.799999999999999,18.200000000000003,2.5016025394482
1.3,0.33128631965188876,-6.766098174357731,-1.3114593778956718,2.8064301556058906,-0.09928039439488275,-0.3453758872142589,13.399999999999999,17.6,2.9172840112090124
1.31,0.2645824811222543,-6.561051743749471,-1.2827604248786766,2.9980459110598914,-0.10384525128054292,-0.31170777756500423,13.999999999999998,17.0,2.783148810815379
1.32,0.20227526780292804,-6.351816230775196,-1.2511248750650892,3.177883973841998,-0.10737738127509303,-0.28348007252106666,14.599999999999998,16.400000000000002,2.183148810815379
1.33,0.13761834994076388,-6.138808209251152,-1.2179690089451984,3.3466683263440387,-0.10967452779680752,-0.2553359678858479,15.2,15.8,2.101020408258522
1.34,0.07689295555151718,-5.921425305555637,-1.183689372144443,3.506111752440963,-0.11112683442826582,-0.22490228440446497,15.8,15.2,2.253391671563852
1.35,0.019328234210320615,-5.703155155670035,-1.1465438651448419,3.6549522208559044,-0.1133941780103503,-0.19588854899991945,16.400000000000002,14.599999999999998,2.124075410631753
1.36,-0.035838191972864614,-5.481561506831077,-1.1077541043563977,3.794439368268589,-0.11546420951043142,-0.17157007849991113,17.0,13.999999999999998,1.5240754106317527
1.37,-0.09051472337474918,-5.256343071172583,-1.0681163523129191,3.9245247629376725,-0.11854693323807107,-0.14146340933187557,17.6,13.4,2.124075410631753
1.3800000000000001,-0.1436124432303424,-5.02690425047747,-1.0289611552415037,4.044268918331554,-0.11847782644706756,-0.11389836698655237,18.200000000000003,12.8,1.5240754106317527
1.3900000000000001,-0.19340036007163655,-4.794770743660599,-0.9887581059990793,4.150714843614361,-0.11883532794872881,-0.08391600743947933,18.800000000000004,12.200000000000001,1.9213321588893497
1.4000000000000001,-0.23861893410506552,-4.560140597336372,-0.9484705621674301,4.248364376522461,-0.11907340826299839,-0.055908269077244575,19.400000000000006,11.600000000000001,1.6122575426030603
1.41,-0.28281867842043207,-4.323253771614668,-0.9059142387491588,4.3353431914292795,-0.11897968588679096,-0.035605216253036136,20.000000000000007,11.000000000000004,1.0122575426030604
1.42,-0.32429171866353823,-4.08429252412458,-0.861669645745017,4.415378025827202,-0.11948330296246398,-0.014040719811930988,20.60000000000001,10.400000000000004,0.825588891983738
1.43,-0.3659790238044588,-3.8441163658476056,-0.8186745847418737,4.48298945797847,-0.12072584260559642,0.01114483277005859,21.200000000000006,9.800000000000004,1.185199979422808
1.44,-0.402356410158735,-3.598032307918017,-0.7751597790380106,4.539518717471627,-0.1199807988296328,0.03288773302781141,21.800000000000008,9.200000000000005,0.6151192819051101
1.45,-0.43634828533344266,-3.357901613002942,-0.7293765736956515,4.590992200650601,-0.1209787136327493,0.05122640052528287,21.595716251000535,8.600000000000005,0.468720765424524
1.46,-0.46963334275565183,-3.125886785611155,-0.6821971039309166,4.632679849472694,-0.11890705619981022,0.07331654709502591,20.995716251000534,8.000000000000007,0.9971143354670656
1.47,-0.5000044719782034,-2.900500778800296,-0.6391269911209659,4.668026666438925,-0.11854475139466761,0.08860089778388738,20.395716251000536,7.4000000000000075,0.3971143354670657
1.48,-0.5275103883299544,-2.6831251907713156,-0.5937446261415907,4.691088776263166,-0.11831079764696412,0.10982041759665942,19.795716251000535,6.800000000000007,0.9971143354670656
1.49,-0.5535791866668673,-2.4745687305749082,-0.5460331670171034,4.7083163758937605,-0.1160442503130881,0.1260015837160195,19.195716251000533,6.200000000000007,0.4992531753747665
1.5,-0.5765716472824456,-2.27331861280206,-0.5001235806718484,4.7153000613097875,-0.11561173674435905,0.1379048105722055,18.595716251000532,5.600000000000007,-0.06982879077606957
1.51,-0.5990684026712777,-2.0795864640862263,-0.4509491727493824,4.711877057890765,-0.11428504637389993,0.14820670248233914,17.99571625100053,5.000000000000007,-0.004371977161440612
1.52,-0.6196198519792805,-1.8957149738947998,-0.40399898595187683,4.700235015631184,-0.11187453654197738,0.1607907925715035,17.39571625100053,4.400000000000007,0.22688411322292215
1.53,-0.6374012264919914,-1.7164607598325579,-0.3574193404436704,4.681813660540941,-0.10886121341592897,0.17093698220327053,16.795716251000528,3.800000000000007,0.019233124563697183
1.54,-0.6538185711539559,-1.5463753149291237,-0.31078027680628717,4.656906367951275,-0.10666782142414546,0.18536605065885542,16.19571625100053,3.200000000000007,0.35218499285403115
1.55,-0.6685977535124589,-1.383376168693847,-0.2624797513028996,4.623530778563954,-0.10517201486047952,0.19475712167511405,15.595716251000528,2.6000000000000068,-0.11843867650649903
1.56,-0.6800871732737069,-1.2265310118227544,-0.21612408295359506,4.581918243396675,-0.10135469509145564,0.20872781524515774,14.995716251000527,2.0000000000000067,0.40195538728801783
1.57,-0.6902216951973331,-1.0763035997531119,-0.17220325216028862,4.532441198358525,-0.10118723168020763,0.21747838226245653,14.395716251000525,1.4000000000000068,0.07013939776557032
1.58,-0.6997002312239088,-0.9331044725061374,-0.12939087956904347,4.474836587988693,-0.09906237303215419,0.22510124092735437,13.795716251000526,0.8000000000000068,0.0345602247087522
1.59,-0.7072841765556059,-0.7977786602077681,-0.08466257148773883,4.411028668361286,-0.09615497295199203,0.2392325922556372,13.195716251000528,0.20000000000000684,0.6345602247087522
1.6,-0.7152555527768781,-0.670020981061676,-0.041986357864494506,4.33826479955607,-0.09329647875472546,0.24737883787339743,12.595716251000528,-0.3999999999999931,0.03456022470875218
1.61,-0.7217414998445457,-0.5479723837677002,0.0008474270880151664,4.258932092586938,-0.09192452030997404,0.25618472741781323,11.995716251000529,-0.999999999999993,0.11680002936284964
1.62,-0.7279749835139488,-0.43413739633674553,0.04324959737352247,4.174243657978475,-0.09148247575159794,0.26103098678196857,11.395716251000529,-1.5999999999999932,-0.13813293757114695
1.6300000000000001,-0.7324537106246511,-0.32743081586331546,0.08387431549062825,4.081470244043811,-0.08740682086892836,0.2664453318348344,10.795716251000531,-2.199999999999993,-0.14686091860160208
1.6400000000000001,-0.7370426462324818,-0.2268781942918108,0.12312145702200955,3.9808564032941685,-0.08709827134062718,0.26779786074876605,10.195716251000531,-2.799999999999993,-0.6289178824689741
1.6500000000000001,-0.7360545919296415,-0.13439859380484992,0.16230566924292478,3.873336009132691,-0.08404484523344699,0.2682603999982443,9.595716251000532,-3.3999999999999932,-0.6553860657289718
1.6600000000000001,-0.7367356177347825,-0.047263817797706775,0.20009562981270199,3.7596343171842626,-0.07959905389422069,0.2740345024542557,8.995716251000532,-3.999999999999993,-0.05538606572897185
1.67,-0.7366231099744447,0.03145682358901291,0.23855425979844963,3.6403076904720577,-0.07636357534934254,0.27623688331576274,8.395716251000533,-4.5999999999999925,-0.31847774690151803
1.68,-0.7362371063029176,0.10560438511333141,0.27504746502889743,3.5145233485376104,-0.07417689662901189,0.2738672665287464,7.795716251000534,-5.199999999999993,-0.646036832161774
1.69,-0.7357343955719232,0.17961500821768892,0.30931073125587205,3.382496068957498,-0.07244486494729602,0.270028773474403,7.683450857514259,-5.799999999999993,-0.6826886924102161
1.7,-0.7339677180237063,0.2457695542552339,0.3415465628580367,3.2439015916568303,-0.06837798718229696,0.2706835330743558,7.08345085751426,-6.399999999999993,-0.5330544707450091
1.71,-0.7312694582915183,0.3052685767412748,0.373934329491643,3.0981091392647646,-0.06719510333071342,0.2684420586274025,6.483450857514259,-6.999999999999993,-0.5578732112488963
1.72,-0.7299476883259113,0.36779215609550375,0.40399255327058864,2.9488934749221216,-0.06345882241083457,0.2648545196574845,6.902071081997516,-7.599999999999993,-1.026479036119134
1.73,-0.7263681056152784,0.4267857781695742,0.43172050657848277,2.793412071352439,-0.0604078021825825,0.26247078581191713,6.4814748598738445,-8.199999999999992,-0.7576286469505594
1.74,-0.7209362065583528,0.4815559571903747,0.46045190785310103,2.629848595940701,-0.058861285882741206,0.2619813715944204,6.281343363139839,-8.799999999999992,-0.40569478415026095
1.75,-0.7178995797772763,0.53113003503426,0.4846220528524282,2.462895602197389,-0.059653388229125165,0.26093056499963685,5.681343363139839,-9.399999999999991,-0.3791656105635341
1.76,-0.7115141922976213,0.5746187012102495,0.5070752753468617,2.2878876336578284,-0.057778413477898825,0.25712997827892686,5.081343363139839,-9.999999999999991,-0.6253981779251369
1.77,-0.7019524662455883,0.6184943588784809,0.5272213980902922,2.109823264491524,-0.056115921039686,0.25250606315186075,5.214048299354018,-10.599999999999989,-0.7349481160564285
1.78,-0.6938618230442238,0.6615258068718403,0.5468499674201849,1.9244207509080293,-0.05408826700168683,0.24635415099927524,5.148400920930269,-11.199999999999989,-0.8642473318472252
1.79,-0.6873528618096664,0.7000956308542767,0.5657904313540508,1.7352123586555717,-0.05229642106011118,0.24570183437172924,4.548400920930269,-11.799999999999988,-0.4107444063071434
1.8,-0.682526595501122,0.7357733304195526,0.5851960384766254,1.5397358255351168,-0.05025353890113445,0.24545847808607144,4.2796650806716094,-12.399999999999988,0.014751475663376465
1.81,-0.6766765163721025,0.7615052329508285,0.5991457256945727,1.3393923917858586,-0.04834926110027622,0.24299522748481098,3.679665080671609,-12.999999999999986,-0.42414873908778555
1.82,-0.6686537012996461,0.7843339345909075,0.6108582981551808,1.1353293908621855,-0.04485024116640903,0.2396702142046122,3.2143847064848514,-13.599999999999985,-0.44622742864494214
1.83,-0.6598896669989921,0.8039829069434772,0.6210632224025333,0.9235649515322564,-0.04330582051699976,0.23313184037699203,2.794937060836185,-14.199999999999985,-0.8793489525918028
1.84,-0.6499269966077533,0.8231817032741743,0.6293699623415158,0.7074569807210133,-0.039963640080577935,0.22592424619440465,2.9548191618100255,-14.799999999999986,-1.0518907194951888
1.85,-0.6414870871525371,0.8409979219393774,0.6331613609099351,0.49819520504168324,-0.037776705327507494,0.22425034307640598,2.801430647618971,-14.57590671527953,-0.5304419778275634
1.86,-0.6327252746494126,0.8545366216506748,0.636483543559871,0.3017059809586706,-0.036746317246777564,0.2187296335848879,2.201430647618971,-13.97590671527953,-0.617369616879482
1.87,-0.6256034194286821,0.8673367637990215,0.6401329088003094,0.11448707314839171,-0.03654390936966848,0.2158944859126664,2.039043141277476,-13.37590671527953,-0.19786660008305074
1.8800000000000001,-0.616355627501163,0.878797694730285,0.6385568258932299,-0.06085333659895093,-0.03480588853929828,0.21208168539348426,1.982061251297807,-12.775906715279532,-0.7104400765661979
1.8900000000000001,-0.6079755338811342,0.8918724528744881,0.6374837722358644,-0.22513698954894598,-0.03145802663687326,0.21268100396790923,2.1382881340029076,-12.175906715279533,-0.12233287620349653
1.9000000000000001,-0.5991819597996867,0.9064884278331176,0.6361790384113323,-0.3790984565017714,-0.03018563005456122,0.2046870426110023,2.46618550419736,-11.575906715279533,-0.6701900498877236
1.9100000000000001,-0.5924317975554069,0.9161892909869133,0.6313573937946944,-0.5223571057543153,-0.028711068994241643,0.199071323623868,2.035676942019688,-10.975906715279534,-0.7010732893652329
1.92,-0.5839962714387835,0.929945283433696,0.622899301248346,-0.6571357034564295,-0.02754070604902269,0.191855083167205,2.318617600849762,-10.375906715279534,-0.58999928902201
1.93,-0.5717703055456294,0.9387811042082508,0.6165234935027814,-0.7807227295065293,-0.027071279558309725,0.19192715167767294,1.7186176008497618,-9.775906715279536,-0.09512229307266822
1.94,-0.5629219775098961,0.9405386510354107,0.6079911392878307,-0.8947455921406796,-0.024931904506091528,0.1875190942705269,1.118617600849762,-9.175906715279536,-0.5574488346952351
1.95,-0.5536800533947488,0.9435987963969167,0.5997336636637844,-1.000747145364949,-0.02336579250280075,0.1846012927330951,1.2368713723536329,-8.575906715279537,-0.47469343168323047
1.96,-0.5451742565151672,0.9470551434202423,0.5889752153466288,-1.0949536715723551,-0.020071985727904234,0.18047722216285897,1.2998473294882444,-7.975906715279538,-0.5637031249031288
1.97,-0.5346788769217108,0.9489710886569471,0.5792181675766189,-1.17743462502788,-0.01843758983789899,0.18075230386537544,1.2642617434406318,-7.375906715279538,0.016237829646108686
1.98,-0.5278036755493967,0.9492448857006122,0.5669187573975768,-1.253920888734422,-0.017767221745825165,0.1752615853865752,0.9907734697865873,-6.775906715279539,-0.5837621703538912
1.99,-0.5187758766676352,0.9551689388199444,0.5550069851695512,-1.3199787331733783,-0.018312966567844105,0.17364030299456973,1.3410910387630963,-6.175906715279538,-0.09992007207656918
2.0,-0.5095131564322896,0.9541515497845829,0.5420211323000642,-1.378299307161689,-0.015228052380037887,0.16838136342009397,0.9521417899002906,-5.5759067152795385,-0.6999200720765691
2.0100000000000002,-0.5012634393276666,0.9499315079790676,0.5276844200204587,-1.4292185980540377,-0.015400497594099914,0.15874400859213086,0.3521417899002907,-4.975906715279538,-0.7700693380928896
2.02,-0.4920998333814169,0.9499215859956027,0.5110811414992851,-1.46809673694164,-0.012473629500709646,0.15538309069283895,0.9028887201084488,-4.375906715279538,-0.5905871568693283
2.0300000000000002,-0.482677643246814,0.9477528378036941,0.4966483313344005,-1.5018666625916268,-0.011405457160410349,0.15066891015910291,0.8735775555388879,-3.7759067152795383,-0.5058409814915886
2.04,-0.473577178943467,0.9489725749982705,0.48250933634992627,-1.524858657009531,-0.00999700671538002,0.14326831696766465,1.0430029965549583,-3.175906715279538,-0.8670491330349152
2.05,-0.4633862164858774,0.9436760538671649,0.4666031150792064,-1.5399196643380448,-0.008357800910880838,0.13441034956259182,0.4430029965549584,-2.575906715279538,-0.7065930423595246
2.06,-0.4538069479752126,0.939039457246971,0.44824037585758,-1.5467782073923548,-0.007017200346226212,0.1287546428728621,0.5275791982204917,-1.975906715279538,-0.5165088776810381
2.07,-0.4453707390169464,0.9396487850212129,0.43298668268355633,-1.5464502843119958,-0.004700280306717496,0.12605980484635806,1.094249275529422,-1.375906715279538,-0.3650662015233329
2.08,-0.4356510884140887,0.9356898951081671,0.417789353167274,-1.5363706143224811,-0.0031646752240834164,0.12262108069672883,0.494249275529422,-0.775906715279538,-0.3067930169181711
2.09,-0.42802968976880973,0.9291692666419263,0.4017442189754743,-1.5184156010053056,-0.0015164051626469454,0.11824620862603606,0.2785704525594932,-0.1759067152795381,-0.662790785820072
2.1,-0.41872379836536416,0.9175599983515603,0.3864668956549262,-1.4918059343068197,-0.00011791594363550963,0.11339220646882271,-0.3214295474405068,0.42409328472046187,-0.5147594491557593
2.11,-0.41080915914486865,0.9109631230243922,0.3737737623514121,-1.457430375927061,-0.00045352106764239323,0.10707451837147045,0.2785704525594932,1.0240932847204618,-0.7258496432453064
2.12,-0.40072966768086243,0.9074530285521301,0.3589960716237192,-1.4143828147448763,0.0003263448580191336,0.10415895930871491,0.5929319484820448,1.6240932847204619,-0.19299075239605332
2.13,-0.392000865811384,0.898215329281671,0.3434659920462001,-1.3648639607751647,0.0014135145572346751,0.10178953216386202,-0.007068051517955182,2.2240932847204617,-0.14470202136780186
2.14,-0.38525768830854373,0.8851876885759653,0.3308655572942209,-1.3089544386904808,0.0009670378145939356,0.0988286601667472,-0.5144429910072803,2.824093284720462,-0.38604126566089636
2.15,-0.3772640102160547,0.876106209980704,0.31784358907764204,-1.2518929102094896,0.0013482658500013377,0.09731222154414522,-0.13390837578171363,2.923607474793746,-0.06951300364347214
2.16,-0.36925914172684715,0.8643298418117488,0.3064789208529973,-1.1903900985374805,0.0027204954778288905,0.09798266132674455,-0.4726638357061595,3.4570854605048305,0.024066873892884075
2.17,-0.35939339425654454,0.8554641560525075,0.29485566856814077,-1.1335543166309916,0.00206661311174355,0.09801436755844128,0.12494582813238334,3.0587299926778573,-0.15066567572930456
2.18,-0.350552313387152,0.847837272656986,0.28268773171346273,-1.0868175890156966,0.0025626499640729605,0.09667283426058189,-0.02062471157678688,2.458729992677857,-0.269628919277593
2.19,-0.3435251680374795,0.8351873653384627,0.2707468958962477,-1.0368455104287753,0.004413634103045589,0.09121265473436979,-0.486252102464104,2.6395971407333296,-0.5030743604340074
2.2,-0.3341704803316919,0.8226916295096267,0.26274768470147103,-0.995982246605414,0.0025945560645324072,0.08606934443232873,-0.3754881812599401,2.0950483226292005,-0.46952470607860053
2.21,-0.3265394986384887,0.8124322366151168,0.25328252446107513,-0.952642357148016,0.0036960319175343825,0.08173985845240078,-0.3626959798936281,2.244774798462798,-0.282179188365664
2.22,-0.3191118880797714,0.8020009697855464,0.2442494217564962,-0.8996929161782042,0.004383445760478626,0.0757573198955602,-0.1325309420292888,2.8447747984627982,-0.41229829890099634
2.23,-0.31020044416361875,0.7896040713373915,0.23550594387506227,-0.8568641343522059,0.004586039121364151,0.07413777703263195,-0.38165878792500596,2.244774798462798,-0.2718707640598872
2.24,-0.3008951659240424,0.7794334324936961,0.227934407129149,-0.8225669229821759,0.005260361794563838,0.07383743889032239,-0.20597682080361476,1.644774798462798,-0.1115677516492247
2.25,-0.2934301147479894,0.7653077746467888,0.21928961866344485,-0.7965066433868007,0.004542525492264557,0.06998625183015182,-0.5696415558628416,1.1117144772717897,-0.46145046165859177
2.2600000000000002,-0.2850353246570503,0.7509172274157585,0.2095675560606164,-0.7691015467575378,0.005464896528786576,0.06614173022515155,-0.947498124596266,1.1970197729891041,-0.1996285322085778
2.27,-0.27705309469406936,0.7348176691890748,0.2004682153412517,-0.7337948722800145,0.006768412590601483,0.05995037228183627,-0.7594198191792109,1.797019772989104,-0.7996285322085778
2.2800000000000002,-0.26844614002177275,0.7215549511399695,0.19531171306600373,-0.707844198654737,0.004898988182815425,0.05547193985315389,-0.5654607509328973,1.197019772989104,-0.4546752647618408
2.29,-0.26209706382289727,0.7073380564878716,0.18773542924267403,-0.6756501074773468,0.006538522407094996,0.04964115767318155,-0.6523192539646618,1.797019772989104,-0.72555668637386
2.3000000000000003,-0.2556324049840009,0.6961140783593016,0.1790880694609756,-0.6496842356730422,0.005344531325597384,0.048684279676672756,-0.6696577684029369,1.348171117331967,-0.1560431979849282
2.31,-0.2484592548805568,0.6845492226430214,0.17341822920287883,-0.6315806089847159,0.006958948625591381,0.04302905670801294,-0.2892308967160144,0.7481711173319671,-0.4429505041267403
2.32,-0.24384394162798745,0.6717297261764638,0.16548126091660018,-0.6225312142140592,0.009199863903905633,0.03828805198990113,-0.6163628347202273,0.14817111733196714,-0.4461833234636059
2.33,-0.23588149214306245,0.656582600770631,0.1609495860229894,-0.603896290307943,0.008431820714499844,0.03910201078111774,-1.0846262855324325,0.7481711173319671,0.05523042988505389
2.34,-0.22832376392336348,0.6404894231402225,0.1553667807279362,-0.5870368488292537,0.008975976682222345,0.03939294344961927,-1.0898050519230962,0.6242782501078211,-0.07832004502901155
2.35,-0.22154928639580487,0.6271398584541223,0.14836550385233682,-0.563394677453292,0.009011244419178343,0.035008000314259595,-0.7140761592023752,1.224278250107821,-0.36538680376201416
2.36,-0.2161186788914159,0.6111134962271632,0.1447369322341431,-0.5407120448502506,0.009597208348238141,0.0333466638892926,-1.005652375186419,1.1963121113207396,-0.023369845754689984
2.37,-0.20936501124742957,0.5979563977509811,0.13806273660394605,-0.5244415202545665,0.008779553741648082,0.02997502716981525,-0.8297025678238539,0.7293693612654223,-0.36573719162409335
2.38,-0.20421234406589114,0.5881439094657769,0.13285338426495985,-0.5063022109195641,0.007655749737919881,0.029745558104527673,-0.46061484302417544,1.0008840069525808,0.13253207440961823
2.39,-0.19803723183052993,0.574818953120999,0.1305930101358472,-0.4844857406042043,0.0077504531486475665,0.02880632853481143,-0.8168522530994917,1.1031776466463306,-0.1003372913687181
2.4,-0.1925124122602334,0.5609863264423007,0.12463793978134399,-0.47102497718112496,0.007438851035963783,0.030332322176471426,-0.8400228323813876,0.5031776466463306,0.2623274646770667
2.41,-0.18430292978328966,0.5477192678740433,0.12178403654878872,-0.4528708981041697,0.007099159430191227,0.027862251274751046,-0.8036882640973426,1.1031776466463306,-0.010931598189619663
2.42,-0.17752187074735762,0.5340913583178096,0.11777857455304579,-0.4392906717002818,0.007098137732936736,0.026948959533831897,-0.8427326497732088,0.5031776466463306,-0.10527533562581955
2.43,-0.1710296387263378,0.5220925260486561,0.11179870313821098,-0.4244182887742984,0.007002232041617462,0.026673607346864435,-0.5563514297754347,0.6315692053381945,-0.050257650239758846
2.44,-0.16520587610706047,0.5146707303566744,0.10776617816706047,-0.40782762202206885,0.006315629333899664,0.025913209095243014,-0.30864283430931555,0.7945563177586196,0.0635093534511641
2.45,-0.16056407557711855,0.5065535257176189,0.105088654341044,-0.38503152401046153,0.00675445322885638,0.026645497008961586,-0.2518962515169048,1.3945563177586193,0.034018877576859854
2.46,-0.15208230058437994,0.4938080426363935,0.10174112500081701,-0.3699167874854419,0.006340957399970525,0.023088243033466033,-0.8518962515169047,0.7945563177586195,-0.08829054136732195
2.47,-0.1482766510523978,0.4840883024525114,0.0975290107651007,-0.3618056250291956,0.008249655714017248,0.019507529702105564,-0.4907031754904782,0.367708590492185,-0.41506618894787706
2.48,-0.14311805017807827,0.4684416237308724,0.09486416052119859,-0.3522776442333198,0.010549746089472045,0.015220387260357834,-1.0907031754904781,0.3963613716557674,-0.3405847358317936
2.49,-0.13730763175006494,0.45607720686473163,0.09227137793844978,-0.3442410396001612,0.009527612304064223,0.008879786708156414,-0.7505007476989163,0.148631447062251,-0.8364903222531062
2.5,-0.1335922711501975,0.43920110565247134,0.08841299154289628,-0.3362100979169558,0.010543660163567174,0.006561942604330471,-1.2544259278694856,0.44946052652915747,-0.4129018551286713
2.5100000000000002,-0.12853435826039758,0.42594897286323286,0.08604844547389105,-0.319500930166482,0.011090739597329905,-0.0017869456010121184,-0.9606386651225288,0.9565022431904621,-0.6580395146012532
2.52,-0.1235844910657354,0.4089941770233101,0.08214532596731622,-0.3010151385888677,0.010436073559004094,-0.0035753082651995365,-1.5030289666875933,0.9982090277203706,-0.058039514601253284
2.5300000000000002,-0.11821907627562761,0.3967130372502188,0.07842704023351035,-0.2836035627647231,0.009891823966877518,-0.007001264003416533,-0.9030289666875935,0.9166344097265249,-0.2853525094036779
2.54,-0.11566166866357715,0.38322694432420934,0.07686363476132545,-0.2706875398722735,0.00810860106745841,-0.004552486729651134,-0.9940046588340489,0.7495871010017432,0.15793549199468315
2.5500000000000003,-0.11110305114971243,0.3749868745882625,0.07352640254254639,-0.26417833781468214,0.008132596392673509,-0.008023938310185086,-0.39400465883404895,0.3691015088683559,-0.2908338529930798
2.56,-0.10990698127633967,0.36361553075543307,0.07058172477010405,-0.24679552436691798,0.00902514150978858,-0.011791135973135277,-0.6947840765363538,0.9691015088683558,-0.2509642005823877
2.57,-0.105409064511012,0.35949517655997404,0.0689987811049069,-0.23593099847866902,0.010385252920922284,-0.011143004306857293,-0.14041229826901666,0.7259322511415046,0.12472327273029299
2.58,-0.10436841872516173,0.3490299509279243,0.06611916173945959,-0.23134154958758696,0.011317140943090654,-0.013203738054868195,-0.6500068360108701,0.1259322511415047,-0.13554994817492663
2.59,-0.10275774594448384,0.34349959677706327,0.06482940052763568,-0.22042418608503933,0.010156468434967883,-0.012454351374631651,-0.2198332621939863,0.7259322511415046,0.30151092938407487
2.6,-0.09956714070855974,0.33287744031780664,0.06254918037066595,-0.2149204084797078,0.009881494682522411,-0.014462913128030665,-0.8198332621939862,0.1259322511415047,-0.2984890706159251
2.61,-0.09679974392141431,0.3274336796700509,0.06022823665511115,-0.20525723535400342,0.009200007305829351,-0.014178267379852002,-0.2198332621939863,0.4615374811203401,0.07582628323223876
2.62,-0.09360371948550121,0.319302528079082,0.057041341627618446,-0.1915114368623084,0.011045374341710443,-0.014000422193590037,-0.5059293376364338,0.7795485175543388,0.045649045968402725
2.63,-0.09016203192147407,0.3126612103345232,0.05623983719978881,-0.18016390569577762,0.010740357068863884,-0.014251674857614673,-0.12482153968320311,0.7325876860372976,-0.08870627053305001
2.64,-0.0854254160727376,0.3015134315180205,0.05272664415453763,-0.16704678746373483,0.0091196696515804,-0.011954729748686487,-0.6903515088111317,0.8007133341115199,0.2197016050072483
2.65,-0.08203715679177519,0.295773248452966,0.05144712800333068,-0.16265827152094067,0.007581730053062606,-0.015891015619461574,-0.3945410203068569,0.20071333411151995,-0.24805195047047665
2.66,-0.07828469486212203,0.2900528271891765,0.05036894245040691,-0.15027656966340452,0.008870406943808189,-0.018828754109633784,-0.12688615720969768,0.8007133341115199,-0.46504868215709283
2.67,-0.07363214297615144,0.2807846233136876,0.0478617962137257,-0.1443424272682307,0.009331009555808817,-0.021120023700517243,-0.7268861572096976,0.20071333411151995,-0.19901111449101125
2.68,-0.06944529951490298,0.27074192052048357,0.045255478785305045,-0.14880977253578315,0.008186703521698575,-0.024217245988952803,-0.8225827926354669,-0.39928666588848,-0.1200399560191801
2.69,-0.0660203649885219,0.2634973892161576,0.04434162517447694,-0.14500487071837312,0.007620149860653843,-0.025354198025291402,-0.22258279263546688,0.17122688034169406,-0.04325789842392437
2.7,-0.06067369336975917,0.2557720913876408,0.04081951501676528,-0.1434522424761981,0.007749404876974418,-0.028195923627888787,-0.8225827926354669,0.0064436148722474005,-0.0543509432656546
2.71,-0.05667299727623621,0.24532584837487922,0.03937843985283078,-0.1362834392724821,0.0069585938277396476,-0.029068716614551293,-0.7142077022363765,0.3822547388307566,0.011981557794949577
2.72,-0.05235639658303095,0.2337134082389346,0.03772346900950871,-0.13818749956144585,0.00507173437977526,-0.024109189870883087,-0.8579545821414516,-0.21774526116924336,0.3709805774186842
2.73,-0.0490447945439061,0.22473385150476943,0.03851303874998744,-0.12990321783225675,0.0032758314555922374,-0.02396643058932854,-0.46430359949283645,0.3822547388307566,0.05678716279871104
2.74,-0.04572619310583709,0.22128051504622492,0.037286067834289505,-0.11901141837148788,0.0055004939816217764,-0.020926274619061717,-0.0788675539815298,0.7790272206289472,0.4093019301519931
2.75,-0.04460556965604953,0.21261213732770975,0.037491593469646894,-0.11464198647854137,0.005705402833604572,-0.01867032640887603,-0.631907903539625,0.1790272206289473,0.33236170003463816
2.7600000000000002,-0.04347287708616558,0.20682992874104295,0.03738384867644614,-0.10348743262326711,0.005585404990835883,-0.015440791254336245,-0.46616756248575963,0.7498580542346427,0.3325578113119269
2.77,-0.04098926116135615,0.2062152096442258,0.03642942703066266,-0.09861372622340435,0.0055963970273738995,-0.015532964380668838,0.13383243751424032,0.1498580542346427,-0.05797289933425801
2.7800000000000002,-0.04079249203368952,0.20069408523139573,0.034394894862353975,-0.09174279403500103,0.0047436524624899935,-0.012181106092830286,-0.46616756248575963,0.26577136071427554,0.3863898954664912
2.79,-0.03818092275782321,0.18939274810805323,0.03543931821789878,-0.08901629730931407,0.006141493349516751,-0.013239873604136122,-0.9517064210731303,0.04820068590599772,0.05913270536953541
2.8000000000000003,-0.03634796847833409,0.1797832371254619,0.03477785427978176,-0.09031729627190267,0.006759407601964772,-0.017896011626103093,-0.6923360856402548,-0.09294726011624559,-0.5408672946304646
2.81,-0.03458133275058311,0.1746658374553205,0.035987529345358066,-0.08245485531767249,0.006807289626839049,-0.017874692182827678,-0.293601509047084,0.5070527398837543,0.05913270536953541
2.82,-0.03421060407776637,0.17050429915416146,0.03405665605536071,-0.07455828037979119,0.007448467927724181,-0.014863429492862401,-0.4305206987804944,0.5080287170126395,0.49096085844984055
2.83,-0.029859283300651598,0.16657818540279365,0.033230444624237986,-0.07302904568018755,0.008020301181771258,-0.013238896128959917,-0.33100406856319103,0.015494320852959884,0.14623965441535797
2.84,-0.027587654465865207,0.16674605675883117,0.029591666286303872,-0.07672343455161856,0.008270944848375173,-0.012442564680150665,0.17717707932711838,-0.3296634666752926,-0.08498592761266088
2.85,-0.026251002123726434,0.16029747600131686,0.029745890495875157,-0.0728443945706825,0.00756668633746036,-0.01513511594049077,-0.4228229206728816,0.2703365333247073,-0.5073379389823675
2.86,-0.025520434010290687,0.15534276812567385,0.027402057469404894,-0.06713401936743557,0.007568231820242284,-0.014263922359846562,-0.39202052321114467,0.4419608763382833,0.06074465716604251
2.87,-0.022463933947568786,0.1463589153907924,0.02752743145121679,-0.06890355930286597,0.007914458223792976,-0.01654072883402513,-0.6509771192757677,-0.07602053543543554,-0.11636457617129302
2.88,-0.02245096377423383,0.13996984738514026,0.026910717068595175,-0.07110579840045628,0.006476245743673685,-0.01639133295084915,-0.6178134764737817,-0.13050050575643343,0.044246041191892786
2.89,-0.020839338582366994,0.13793588037558002,0.02623430981180439,-0.06820399180444175,0.005949678872671821,-0.017842358704624812,-0.017813476473781776,0.3034967174542162,-0.19094066628447953
2.9,-0.017881509974609713,0.13240941715068988,0.024338035637026776,-0.0691294230077796,0.006233827050013519,-0.01904563954054527,-0.3678243234157873,-0.10241668213691107,-0.18726009848790165
2.91,-0.014431303177099298,0.13285416476802997,0.026500132700815915,-0.06574874622060158,0.0065962133472244,-0.01575849654552199,0.06798266251679724,0.11076142755867412,0.2240692217704387
2.92,-0.011897187329341505,0.13203093349597633,0.023762010669340982,-0.06735970592242299,0.006815657684581959,-0.010585800017873388,-0.04727254311652005,-0.18697191022740536,0.49641423376658184
2.93,-0.010064239909857595,0.12654291052483957,0.023566893265035634,-0.06927537537508174,0.004416931766770848,-0.006687521719441967,-0.6133506914442853,-0.12718125637043745,0.3729686207477237
2.94,-0.008540978058575984,0.12055257379096534,0.023901205004484376,-0.06195311032353377,0.0030691418014362846,-0.008615220537083766,-0.3920555987511067,0.36162647187755004,-0.22703137925227626
2.95,-0.009644871019027963,0.11695419963256738,0.02283129036355889,-0.054524841432453716,0.0012655878764934456,-0.007757634296260169,-0.36329422093784025,0.6019589689615458,0.22408297395605248
2.96,-0.01027674307595,0.11310989950752535,0.021172965418495036,-0.05382212975202684,-0.0006505959036807951,-0.008833126698978963,-0.4974627996790701,0.0019589689615457737,0.1412933217464027
2.97,-0.008268982461684317,0.11293689835649613,0.020874022891466025,-0.05785838921971177,-0.0002907144176335803,-0.008473624607107315,0.10253720032092985,-0.1317790656138779,0.030490567869712746
2.98,-0.007755074199572324,0.10811715871415237,0.020667726387302677,-0.0506686324930752,0.0011322205247181695,-0.0015148662384300714,-0.29445232747781575,0.46822093438612206,0.6304905678697127
2.99,-0.008449098945116532,0.10363942024006795,0.020646054443122827,-0.04524679829395168,0.0005402516748053753,-0.002106676334535741,-0.599800763369984,0.4621307880045965,0.10383228586655865
3.0,-0.007574798543776789,0.10253476511996702,0.019307103164158314,-0.04652382798402672,0.000674761859671507,0.0019104606521403453,0.0001992366300159425,-0.13786921199540345,0.3375958108076839
3.0100000000000002,-0.007944590259859625,0.09623342887844778,0.018512221489983466,-0.053863973449490586,0.0002410025042112317,0.002285449842943041,-0.49399681460865075,-0.7378692119954035,0.046272700579726996
3.02,-0.009483668570815432,0.08757644999552462,0.018558824427003937,-0.05568016410236961,-0.0009294366412995686,0.0015234057257194793,-0.7258538392096091,-0.14972101196516252,0.07169794612601876
3.0300000000000002,-0.008070411831236097,0.08782442638816626,0.017342017327981515,-0.06545485577340353,-0.0009440872884942814,0.0013105281164862686,-0.12585383920960913,-0.7497210119651625,-0.30918331716534564
3.04,-0.00709775494632363,0.08729421702227169,0.016663339628068114,-0.06608116291807299,-0.0008104905199479944,-0.002325545438712014,0.05154094277510444,-0.14972101196516252,-0.5077124244496762
3.0500000000000003,-0.008065310375533468,0.08138068866602943,0.01697439852656646,-0.05824638194014337,-0.0011831550279502966,-0.0020413776205824054,-0.49945732262434606,0.4502789880348374,0.02540221105108725
3.06,-0.008636295614095941,0.07834122389184378,0.014480564062371607,-0.05160433465532935,-0.0014936141137101146,0.0010668051060055848,-0.2459154791935151,0.4051815323630013,0.19597201309036472
3.0700000000000003,-0.00821384238763014,0.072720795750125,0.01615656392344116,-0.044225673189953796,-0.0014130518466759286,-2.825362148828729e-05,-0.3591090591201059,0.4876942506012679,-0.2938423934326905
3.08,-0.009019511466727281,0.06548167453839425,0.015847960937931848,-0.04441762506819462,-0.00215664071216344,-0.0004159946458596408,-0.5771140465572574,-0.11230574939873204,-0.16772112533844344
3.09,-0.009798116960047318,0.06426540910819847,0.016253351589433213,-0.03906432924996843,-0.0002576780531853027,-0.0010182736704667772,-0.027123476040105027,0.16856060354402058,-0.11959464308546826
3.1,-0.006907373067446313,0.06617712608121731,0.017857041217798724,-0.03992084506164978,-0.002538522917219174,-0.007151254493186676,0.20442230175712914,-0.1281705525601259,-0.7185784694798597
3.11,-0.00719605238782203,0.060576974335736326,0.0172868843137952,-0.05001763885439739,-0.003206906765037373,-0.008492786206378222,-0.3955776982428708,-0.7281705525601259,-0.11857846947985975
3.12,-0.00925409548951517,0.06136640359832821,0.016775129892550464,-0.051686381572082545,-0.003581278479392092,-0.008700642711710276,0.12522616138961332,-0.12817055256012588,-0.021475180342980044
3.13,-0.010929334080819576,0.06260279238441664,0.016155497056910557,-0.05156293425820015,-0.00450446293147271,-0.0075155391609344315,0.401228684394027,0.17638711350340408,0.12010993534448573
3.14,-0.010223894981907485,0.06341187579003986,0.018119029421691198,-0.04527770973854055,-0.004806683843522772,-0.00724091842253745,0.0025901002175519453,0.30927430350430907,0.17389488286559412
3.15,-0.00859348587418964,0.058263105055354245,0.019262613981601028,-0.035656728830206375,-0.0056168795063368466,-0.009499746872135915,-0.3910408784240221,0.607833667013408,-0.42587620619111366
3.16,-0.00709971294283963,0.0576761303949931,0.01998539875930611,-0.03452868466348442,-0.004977091413683056,-0.007923340468051121,-0.12042576636117557,0.007833667013408104,0.12174312342887193
3.17,-0.0072888302285519305,0.05688218544895616,0.020125251609700988,-0.0418236704955331,-0.005736077826668742,-0.011270099325693353,-0.04840244697044972,-0.5921663329865918,-0.3332730775573446
3.18,-0.005897586449100394,0.05676804404507171,0.01926312454980365,-0.041295551966805885,-0.005713165704654189,-0.011340807414298099,-0.1891176709994313,0.007833667013408104,0.2667269224426554
3.19,-0.005411755217600441,0.053692927276200175,0.017139555430126116,-0.031942882193177466,-0.006844962682043995,-0.005985782422407515,-0.07028015492415443,0.607833667013408,0.42635124204735125
3.2,-0.004340833538033852,0.04696963693505749,0.01628070062245517,-0.017835280452159357,-0.007034929030944229,-0.008091288552916557,-0.4822515191743825,0.9012681237799892,-0.07268412915839474
3.21,-0.003427758523152647,0.04695060875833377,0.016737935049546324,-0.013015077409706942,-0.007820527520054627,-0.007587394214793592,-0.0024034712304424623,0.3012681237799893,0.012789351710766523
3.22,-0.0014073264907845501,0.044902691306989574,0.01680586608448973,-0.0033158608251394836,-0.009937086115117873,-0.003617200965416905,-0.49784533177525386,0.9012681237799892,0.2606891441204624
3.23,-0.0009372932699457752,0.03355180479283164,0.017054304218592557,0.0006422216676390983,-0.010251586312327388,-0.0052084738373504086,-1.0978453317752537,0.3012681237799893,0.015261257214991148
3.24,-0.00010193676356368455,0.028982883775014293,0.018166029585938208,0.007034780447241924,-0.009496404512248069,-0.003723167325054532,-0.49784533177525375,0.6464226293376848,0.14586497107938112
3.25,-0.0005604790818147452,0.028018655080129587,0.019771471462392602,0.008685368138216184,-0.007671406511730596,-0.0009406005749639343,0.057395084509872185,0.04642262933768484,0.35911322285751934
3.2600000000000002,0.0007149611181171987,0.02558273714076479,0.019774625441933844,0.0023788764827757983,-0.00800016120638708,0.0018982843086954948,-0.4805558071015492,-0.5535773706623152,0.47518788406545837
3.27,0.0014687026543394935,0.027021879276203403,0.019387703317518722,-0.0030887835944385282,-0.007548240687197123,0.004333806274197729,0.11944419289845075,-0.2410345217370464,0.23477267919577796
3.2800000000000002,0.0018097351763336881,0.027866032366889233,0.021019823366455706,0.0003067519157135804,-0.007205222718031278,0.00614050416351689,-0.04239359112892672,0.21134544447094217,0.24131043595988502
3.29,0.0021228987687985845,0.02474550294855019,0.021215658864051808,-0.003796074491293641,-0.008082354592366201,0.005639577609457731,-0.2763587591019192,-0.3886545555290578,0.10014377574409143
3.3000000000000003,0.003474246898818683,0.025935624284322716,0.0211941857758154,-0.0071235230355671236,-0.009428287647262126,0.007280748200014499,0.29853893103600176,-0.3490662284254096,-0.0005969335221230715
